stop_id,stop_code,stop_name,stop_desc,stop_lat,stop_lon,zone_id,stop_url,location_type,platform_code
1001_00,,名鉄柳津駅,,35.365099632,136.739430569,1001_00,,0,
1002_00,,柳津地域事務所,,35.366209354,136.737876599,1002_00,,0,
1003_00,,北塚会館,,35.366705977,136.734697484,1003_00,,0,
1004_00,,カラフルタウン北口,,35.365922746,136.727198551,1004_00,,0,
1005_00,,下佐波1丁目,,35.36339104,136.721581433,1005_00,,0,
1006_00,,やないづもえぎの里,,35.364142674,136.718494238,1006_00,,0,
1007_00,,スーパービバホーム,,35.369168772929,136.713470220565,1007_00,,0,
1008_00,,ファミリー歯科・黒田内科クリニック南,,35.3730003530048,136.713738441467,1008_00,,0,
1009_00,,くまざき内科前,,35.372893132,136.708549532,1009_00,,0,
101_00,,ＪＲ岐阜駅南口,,35.409027796,136.757406531,101_00,,0,
1010_00,,且格小学校前,,35.373134648,136.706067309,1010_00,,0,
1011_00,,ＪＡ日置江支店前,,35.372940062,136.702752138,1011_00,,0,
1012_00,,天野,,35.371249755,136.697316861,1012_00,,0,
1013_00,,田中歯科医院前,,35.367448505,136.693638421,1013_00,,0,
1014_00,,うおよし前,,35.363872565,136.69521704,1014_00,,0,
1015_00,,大脇森北冷機前,,35.3642653367589,136.703216135501,1015_00,,0,
1016_00,,岐阜聖徳学園大学,,35.361790473,136.705680806,1016_00,,0,
1017_00,,岐阜南病院北・㈱カネヒロ前,,35.3584610469964,136.705895350378,1017_00,,0,
1018_00,,高桑コミュニティ会館,,35.3571619564312,136.710762866138,1018_00,,0,
1019_00,,坂巻,,35.357254307,136.718892112,1019_00,,0,
102_01,,加納北広江町,,35.4081783164557,136.762398113291,102_01,,0,
102_02,,加納北広江町,,35.4082788779737,136.762461145203,102_02,,0,
1020_00,,宮下,,35.35777535,136.721779723,1020_00,,0,
1021_00,,カラフルタウン南口,,35.361337997,136.730234835,1021_00,,0,
1022_00,,カラフルタウン,,35.364847178,136.727321027,1022_00,,0,
1023_00,,南塚4丁目,,35.36109682,136.734082096,1023_00,,0,
1024_00,,梅松,,35.360907334,136.738458457,1024_00,,0,
1025_00,,諏訪山口,,35.4391412289603,136.851272878168,1025_00,,0,
1026_00,,河村病院東,,35.4382585445512,136.844556171941,1026_00,,0,
1027_00,,たなかクリニック前,,35.440368513,136.843917967,1027_00,,0,
1028_00,,コートスマイル前,,35.440223149,136.843088041,1028_00,,0,
103_01,,加納中広江町,,35.4073336711548,136.762536717555,103_01,,0,
103_02,,加納中広江町,,35.407116853,136.762665273,103_02,,0,
1030_00,,日の出町,,35.444067631,136.838147319,1030_00,,0,
1032_00,,へあーさろんまつお前,,35.4469942268193,136.840181965245,1032_00,,0,
1033_00,,本町,,35.4493494207373,136.840607405841,1033_00,,0,
1033_01,,本郷いこい広場,,35.3664522510364,136.742199687763,1033_01,,0,
1033_02,,本郷いこい広場,,35.36638246,136.742073385,1033_02,,0,
1034_00,,イオン柳津店南口,,35.36638437,136.744677613,1034_00,,0,
1035_00,,蓮池6丁目,,35.3657248870267,136.747955517839,1035_00,,0,
1036_00,,東塚1丁目,,35.3652212730201,136.750893374186,1036_00,,0,
1037_00,,松波総合病院,,35.364659629,136.757155051,1037_00,,0,
1038_00,,栄町,,35.3658124141104,136.755744395149,1038_00,,0,
1039_00,,東塚3丁目,,35.368658525,136.751596446,1039_00,,0,
104_01,,中山道・水薬師・大手御門,,35.4051781819941,136.762377797019,104_01,,0,
104_02,,中山道・水薬師・大手御門,,35.405155749,136.762447705,104_02,,0,
1040_00,,柳津東保育所北,,35.367117955,136.749563511,1040_00,,0,
1041_00,,蓮池2丁目（石窯パン工房ドゥマン前）,,35.367222257,136.746651348,1041_00,,0,
1042_00,,イオン柳津店,,35.367489524,136.745097745,1042_00,,0,
1043_00,,竹内医院南,,35.37366927,136.744489026,1043_00,,0,
1044_00,,ワコー自動車前,,35.375650568,136.739997674,1044_00,,0,
1045_00,,サカヤス前,,35.3762456582611,136.737317740917,1045_00,,0,
1046_00,,南鶉3丁目,,35.3763031288004,136.736052506863,1046_00,,0,
1047_00,,江崎歯科東,,35.376736623,136.734277313,1047_00,,0,
1048_00,,鶉小学校前,,35.3784708818605,136.73423320055,1048_00,,0,
1049_00,,中鶉4丁目,,35.38025632,136.734797412,1049_00,,0,
105_01,,附属小・中学校,,35.4033208270427,136.761752875549,105_01,,0,
105_02,,附属小・中学校,,35.403306,136.761823,105_02,,0,
1050_00,,笠松病院・岐阜市地域包括支援センター境川,,35.383509781,136.734169739,1050_00,,0,
1051_00,,スーパー三心東,,35.382340885,136.740858291,1051_00,,0,
1052_00,,うずら歯科,,35.379945124,136.740731097,1052_00,,0,
1053_00,,東鶉7丁目バス停,,35.377297964,136.739992304,1053_00,,0,
1054_00,,津島神社前（鶉）,,35.3781825339022,136.736794159815,1054_00,,0,
1055_00,,鶉公民館前,,35.378535252,136.732581341,1055_00,,0,
1056_00,,岐阜信用金庫うずら支店北,,35.3787208466469,136.729077974663,1056_00,,0,
1057_00,,堀江畳店前,,35.3772017337517,136.728772279218,1057_00,,0,
1058_00,,JA鶉支店前,,35.3767546096,136.726338107,1058_00,,0,
1059_00,,清水野,,35.376787208,136.725133918,1059_00,,0,
106_01,,加納小学校・加納東公民館,,35.4019556500317,136.761425678479,106_01,,0,
106_02,,加納小学校・加納東公民館,,35.401532762,136.761382027,106_02,,0,
1060_00,,かねまつ整形外科前,,35.3769490840142,136.721564573351,1060_00,,0,
1061_00,,宮上ふれあい会館西,,35.371027781,136.719992727,1061_00,,0,
1062_00,,中佐波,,35.3682317609042,136.719788707295,1062_00,,0,
1064_00,,やまだ整形外科・内科クリニック、柳津生涯学習センター,,35.364573644,136.720639793,1064_00,,0,
1066_00,,高齢者福祉センター,,35.3668107128,136.7280038795,1066_00,,0,
1067_00,,おおくま歯科前,,35.3685804196632,136.737251594996,1067_00,,0,
107_01,,加納城址,,35.4006278718546,136.760816918453,107_01,,0,
107_02,,加納城址,,35.400542424,136.7606683,107_02,,0,
108_01,,加納公園,,35.3996140262521,136.759231383898,108_01,,0,
108_02,,加納公園,,35.399492314,136.759231043,108_02,,0,
109_00,,南部コミセン,,35.397810639,136.76070027,109_00,,0,
110_00,,加納中学校,,35.397280771,136.75858065,110_00,,0,
1101_00,,バロー長良店,,35.4488629,136.78726367,1101_00,,0,
1102_00,,雄総台西,,35.447632522,136.789199222,1102_00,,0,
1103_00,,雄総台東,,35.4463530580292,136.791408859211,1103_00,,0,
1104_00,,長良台,,35.447240903,136.792513005,1104_00,,0,
1105_00,,おぶさ,,35.445729357,136.794880602,1105_00,,0,
1106_00,,おぶさ公民館前,,35.44466752,136.794387705,1106_00,,0,
1107_00,,雄総緑町2丁目,,35.4433182886318,136.794917655133,1107_00,,0,
1108_00,,雄日ヶ丘公園西,,35.4436470555846,136.797453964249,1108_00,,0,
1109_00,,雄日ヶ丘公園東,,35.4441027769175,136.798930029157,1109_00,,0,
111_01,,加納中通り,,35.3969848931957,136.756735594289,111_01,,0,
111_02,,加納中通り,,35.396577592,136.756321354,111_02,,0,
1110_00,,中川原,,35.444174787,136.800153236,1110_00,,0,
1111_00,,雄総緑町４丁目,,35.4425755167127,136.796774275348,1111_00,,0,
1112_00,,鵜飼大橋北,,35.4425076183469,136.793750014724,1112_00,,0,
1113_00,,雄総柳町,,35.441756569,136.790559564,1113_00,,0,
1114_00,,雄総桜町,,35.4426202575882,136.789738018955,1114_00,,0,
1115_00,,サンライフ岐阜,,35.443979983,136.786822129,1115_00,,0,
1116_00,,長良東,,35.44774279,136.787023,1116_00,,0,
1116_01,,長良東,,35.4478125306223,136.787169274563,1116_01,,0,
1117_00,,田中接骨院,,35.44532828,136.783194939,1117_00,,0,
1118_00,,長良高校前,,35.445617291,136.780346091,1118_00,,0,
1119_00,,長良宮口町,,35.444643043,136.779750635,1119_00,,0,
112_00,,加納花ノ木町,,35.3974659209085,136.755111834714,112_00,,0,
1120_00,,長良東郷町,,35.444461103,136.777663238,1120_00,,0,
1121_00,,長良大路,,35.445219044,136.775667469,1121_00,,0,
1122_00,,長良北町,,35.4467118062858,136.773917297459,1122_00,,0,
1123_00,,ピアゴ長良店,,35.451743067,136.774516223,1123_00,,0,
1123_01,,ピアゴ長良店,,35.451646569,136.774029996,1123_01,,0,
1123_02,,ピアゴ長良店,,35.452352785,136.773962571,1123_02,,0,
1124_00,,福光東3丁目,,35.4546738281093,136.774186051416,1124_00,,0,
1124_01,,福光東3丁目,,35.4546738281093,136.774298558355,1124_01,,0,
1127_00,,長良高見,,35.457432714,136.775800299,1127_00,,0,
1128_00,,子正賀西,,35.4551336723222,136.775905494516,1128_00,,0,
1129_00,,友瀬・子正賀,,35.455866217,136.776705633,1129_00,,0,
113_01,,加納鉄砲町5丁目,,35.3977938663442,136.753962859511,113_01,,0,
113_02,,加納鉄砲町5丁目,,35.3977453,136.753947432,113_02,,0,
1130_00,,岐山高校南,,35.4561587853112,136.778866088401,1130_00,,0,
1131_00,,西山（長良）,,35.4574835083361,136.781157215612,1131_00,,0,
1132_00,,長良福泉,,35.4555680195392,136.782021676665,1132_00,,0,
1133_00,,清水ヶ丘,,35.454422165,136.7845097,1133_00,,0,
1134_00,,眞福禅寺前,,35.4561354858221,136.786541875151,1134_00,,0,
1135_00,,松籟荘,,35.4559415828325,136.788688381959,1135_00,,0,
1136_00,,長良竜東町2丁目,,35.453829053,136.785139344,1136_00,,0,
1137_00,,長良竜東町4丁目,,35.4524179290767,136.78572209139,1137_00,,0,
1138_00,,長良医療センター,,35.451336366,136.788447368,1138_00,,0,
1139_00,,北市民健康センター,,35.4504938579395,136.787913224778,1139_00,,0,
114_01,,観音寺・猿田彦神社前,,35.3981787958117,136.752639677748,114_01,,0,
114_02,,観音寺・猿田彦神社前,,35.3981837151947,136.752500720322,114_02,,0,
115_01,,加納高校,,35.3986560249878,136.750383418307,115_01,,0,
115_02,,加納高校,,35.398591883,136.750447878,115_02,,0,
116_01,,加納堀田町2丁目,,35.399636778,136.749137598,116_01,,0,
116_02,,加納堀田町2丁目,,35.3996916417671,136.74908760935,116_02,,0,
117_01,,メガドンキ前,,35.401403098,136.749559507,117_01,,0,
117_02,,メガドンキ前,,35.4013192282199,136.749473847448,117_02,,0,
118_01,,加納西小学校・公民館,,35.4035835267619,136.75001733005,118_01,,0,
118_02,,加納西小学校・公民館,,35.4034992196088,136.749946586787,118_02,,0,
119_01,,加納神明町・児童センター,,35.40515325191,136.750349599898,119_01,,0,
119_02,,加納神明町・児童センター,,35.4052365850232,136.750316407562,119_02,,0,
120_01,,加納愛宕町,,35.408506961,136.75135811,120_01,,0,
120_02,,加納愛宕町,,35.4085754938623,136.751297910692,120_02,,0,
1201_00,,バロー岩田店,,35.438729456,136.839749914,1201_00,,0,
1202_00,,岩田東３丁目,,35.43846135,136.837615629,1202_00,,0,
1203_00,,岩田（東）,,35.439409189,136.835313473,1203_00,,0,
1204_01,,神池,,35.436822066,136.830874113,1204_01,,0,
1204_02,,神池,,35.436508576,136.830200356,1204_02,,0,
1205_00,,三信町,,35.433883341,136.831956305,1205_00,,0,
1206_00,,流公園,,35.435493917,136.83034798,1206_00,,0,
1207_00,,岩田坂南町,,35.433472128082,136.826537224348,1207_00,,0,
1208_00,,小坂町,,35.434381165,136.825092711,1208_00,,0,
1209_00,,岩田坂北町,,35.4336352909376,136.824313953733,1209_00,,0,
121_00,,朝日大学病院前,,35.410823857865,136.750282668551,121_00,,0,
1210_00,,畑中,,35.439961454,136.83474638,1210_00,,0,
1211_00,,桜町,,35.441611017,136.836190927,1211_00,,0,
1212_00,,ミカド前,,35.440867276,136.838772192,1212_00,,0,
1213_00,,石原産婦人科前,,35.4401061477481,136.84204132948,1213_00,,0,
1214_00,,嵯峨,,35.442726675,136.841634785,1214_00,,0,
1215_00,,中野畑,,35.4437848442198,136.842586407307,1215_00,,0,
1216_00,,自由ヶ丘1,,35.442929308,136.845066308,1216_00,,0,
1217_00,,自由ヶ丘2,,35.442094092,136.847146165,1217_00,,0,
1218_00,,自由ヶ丘3,,35.441883989,136.848859152,1218_00,,0,
1219_00,,自由ヶ丘4,,35.4417275897473,136.850538834693,1219_00,,0,
122_00,,愛宕住宅前（山田商会前）,,35.4100544610801,136.749924502926,122_00,,0,
1220_00,,自由ヶ丘5,,35.4418990332598,136.851777788558,1220_00,,0,
1221_00,,諏訪山1,,35.441902949,136.853806203,1221_00,,0,
1222_00,,しいのみ公園東,,35.4404791829351,136.853291216362,1222_00,,0,
1223_00,,諏訪山2,,35.4399167642622,136.854579437674,1223_00,,0,
1224_00,,諏訪山3,,35.438854535,136.853162305,1224_00,,0,
1225_00,,岩田（西）,,35.440281253,136.835889492,1225_00,,0,
1226_00,,朝日町,,35.4455504301936,136.839294594155,1226_00,,0,
1227_00,,八幡町,,35.450915715,136.839358142,1227_00,,0,
1228_00,,八幡神社前,,35.453030503,136.838664577,1228_00,,0,
1229_00,,芥見小学校北,,35.453123895,136.842336857,1229_00,,0,
1230_00,,東芥見・ＪＡ芥見支店,,35.448540806,136.843142215,1230_00,,0,
1231_00,,下芥見,,35.4457563041711,136.840639315638,1231_00,,0,
1402_02,,市民病院前,,35.41404927,136.735999289,1402_02,,0,
1403_01,,ＮＴＴ本荘,,35.413504536,136.73718708,1403_01,,0,
1403_02,,ＮＴＴ本荘,,35.413503367,136.737312171,1403_02,,0,
1404_01,,本荘公民館,,35.410894598,136.737662516,1404_01,,0,
1404_02,,本荘公民館,,35.410607623,136.737823999,1404_02,,0,
1405_01,,本荘西公園西,,35.409796523,136.733147968,1405_01,,0,
1405_02,,本荘西公園西,,35.40984951,136.733236715,1405_02,,0,
1406_01,,ヘルスバンク敷島店,,35.408645913,136.731349811,1406_01,,0,
1406_02,,ヘルスバンク敷島店,,35.40864443,136.731441249,1406_02,,0,
1407_01,,岐南工業高校,,35.405331551,136.731325673,1407_01,,0,
1407_02,,岐南工業高校,,35.405365768,136.731420449,1407_02,,0,
1408_01,,科学館前,,35.403594232,136.731506665,1408_01,,0,
1408_02,,科学館前,,35.403138971,136.731730008,1408_02,,0,
1409_01,,県美術館北,,35.4020444336273,136.730784939553,1409_01,,0,
1409_02,,県美術館北,,35.4019639680206,136.730020417912,1409_02,,0,
1411_01,,図書館美術館駐車場前,,35.40047841,136.732208083,1411_01,,0,
1411_02,,図書館美術館駐車場前,,35.4005355640869,136.732308599378,1411_02,,0,
1412_01,,宇佐住吉町,,35.4005430264883,136.734253401356,1412_01,,0,
1412_02,,宇佐住吉町,,35.4006443387974,136.735276939918,1412_02,,0,
1413_01,,宇佐東町,,35.399573231,136.735557966,1413_01,,0,
1413_02,,宇佐東町,,35.399018317,136.735459428,1413_02,,0,
1414_01,,神明神社北,,35.397787019,136.73424017,1414_01,,0,
1414_02,,神明神社北,,35.397881638,136.73437318,1414_02,,0,
1415_01,,早徳病院東,,35.39680442,136.735818375,1415_01,,0,
1415_02,,早徳病院東,,35.3968728559147,136.735788300573,1415_02,,0,
1416_01,,岐阜産業会館,,35.397134013,136.739453666,1416_01,,0,
1416_02,,岐阜産業会館,,35.3972150140862,136.739396107798,1416_02,,0,
1417_01,,金花堂鍼灸整骨院前,,35.39660057,136.741226579,1417_01,,0,
1417_02,,金花堂鍼灸整骨院前,,35.3966807034145,136.741235301407,1417_02,,0,
1418_01,,福寿公園前,,35.3982193660503,136.744636940518,1418_01,,0,
1418_02,,福寿公園前,,35.3982868987012,136.744549098173,1418_02,,0,
1419_01,,片田神社前,,35.397980798,136.746867626,1419_01,,0,
1419_02,,片田神社前,,35.3980677128482,136.746881106484,1419_02,,0,
1421_01,,笠原鋼鉄前,,35.4029755333436,136.746581767828,1421_01,,0,
1421_02,,笠原鋼鉄前,,35.403832835,136.747011141,1421_02,,0,
1422_01,,みさとこども園前,,35.4028340604833,136.743562901776,1422_01,,0,
1422_02,,みさとこども園前,,35.4035584175239,136.743940515676,1422_02,,0,
1423_01,,三里小学校前,,35.403107678,136.742771288,1423_01,,0,
1423_02,,三里小学校前,,35.403408411,136.742711209,1423_02,,0,
1424_01,,丸川荘前,,35.404024217,136.741660213,1424_01,,0,
1424_02,,丸川荘前,,35.4040325257712,136.741546597437,1424_02,,0,
1425_01,,三里診療所前,,35.40498637,136.741704486,1425_01,,0,
1425_02,,三里診療所前,,35.4050944924358,136.741496840687,1425_02,,0,
1426_01,,清本町５丁目,,35.4063253294995,136.739660674968,1426_01,,0,
1426_02,,清本町５丁目,,35.4063466209919,136.739599654713,1426_02,,0,
1427_01,,カネスエ,,35.407505815,136.744137691,1427_01,,0,
1427_02,,カネスエ,,35.407924993,136.742891908,1427_02,,0,
1428_01,,たかはし整形外科前,,35.4071810141153,136.746719889874,1428_01,,0,
1428_02,,たかはし整形外科前,,35.4076495683768,136.746154542314,1428_02,,0,
1429_01,,オーキッドパーク,,35.4112724602731,136.744987585503,1429_01,,0,
1429_02,,オーキッドパーク,,35.411209119,136.745040849,1429_02,,0,
1430_01,,敷島町３丁目,,35.41158628,136.742203498,1430_01,,0,
1430_02,,敷島町３丁目,,35.411523295,136.742143501,1430_02,,0,
1431_01,,本荘公園西,,35.414242817,136.741081851,1431_01,,0,
1431_02,,本荘公園西,,35.4142206943442,136.74101227228,1431_02,,0,
1432_01,,こばと幼稚園,,35.415856332,136.740548248,1432_01,,0,
1432_02,,こばと幼稚園,,35.4158073002672,136.740477383136,1432_02,,0,
1433_01,,嵯峨野前,,35.4166062149884,136.739346313692,1433_01,,0,
1433_02,,嵯峨野前,,35.416533131,136.739259653,1433_02,,0,
1434_01,,岐阜電材前,,35.416059193483,136.736847102532,1434_01,,0,
1434_02,,岐阜電材前,,35.416012132,136.736926019,1434_02,,0,
1502_01,,ふじの湯・まさき接骨院,,35.4505607250227,136.74608450359,1502_01,,0,
1502_02,,ふじの湯・まさき接骨院,,35.450402077,136.746212733,1502_02,,0,
1503_01,,正木北公園前,,35.453382397,136.748192316,1503_01,,0,
1504_01,,石黒クリニック前,,35.4535069819548,136.750291987582,1504_01,,0,
1504_02,,石黒クリニック前,,35.453499804,136.750170615,1504_02,,0,
1505_01,,鷺山北公園,,35.452935508,136.752425368,1505_01,,0,
1505_02,,鷺山北公園,,35.452854243073,136.752028604037,1505_02,,0,
1506_01,,鷺山保育所,,35.452686673878,136.756078645711,1506_01,,0,
1506_02,,鷺山保育所,,35.452626628,136.756072398,1506_02,,0,
1507_01,,早田飯店前,,35.453388481,136.757327993,1507_01,,0,
1507_02,,早田飯店前,,35.453305343,136.757263582,1507_02,,0,
1508_01,,アミカ北,,35.4554614660952,136.761353226539,1508_01,,0,
1508_02,,アミカ北,,35.455386903,136.761424812,1508_02,,0,
1509_01,,平野内科クリニック,,35.455694044,136.763154753,1509_01,,0,
1509_02,,平野内科クリニック,,35.45559133,136.763049747,1509_02,,0,
1510_01,,JA常磐支店前,,35.460051193,136.763092341,1510_01,,0,
1510_02,,JA常磐支店前,,35.459773893,136.763315141,1510_02,,0,
1511_01,,常磐保育園,,35.461319376,136.762205707,1511_01,,0,
1511_02,,常磐保育園,,35.4614402986568,136.762211269993,1511_02,,0,
1512_01,,中野,,35.4632948216838,136.763394792288,1512_01,,0,
1512_02,,中野,,35.463460795,136.763762425,1512_02,,0,
1513_01,,堤,,35.4650590570144,136.765675179895,1513_01,,0,
1513_02,,堤,,35.464915232,136.765610263,1513_02,,0,
1514_00,,鶴山霊園前【南側】,,35.466982878,136.766241119,1514_00,,0,
1514_01,,鶴山霊園前【北側】,,35.4674061815153,136.765893053744,1514_01,,0,
1515_00,,岐阜工芸北,,35.470748945,136.762497366,1515_00,,0,
1516_00,,貢毛,,35.473695552,136.760140488,1516_00,,0,
1517_00,,清水団地,,35.4769027939574,136.757512681079,1517_00,,0,
1518_00,,地蔵堂前,,35.478547194,136.756437786,1518_00,,0,
1519_00,,了義寺（半僧坊）前,,35.47855614,136.758155793,1519_00,,0,
1520_00,,鈴道,,35.478017089,136.760964568,1520_00,,0,
1521_00,,椿洞,,35.476521041,136.762602653,1521_00,,0,
1522_00,,川東,,35.474287662,136.763513531,1522_00,,0,
1523_00,,川東下,,35.472722491,136.765413418,1523_00,,0,
1524_00,,藤ヶ崎,,35.470971221,136.765561903,1524_00,,0,
1525_01,,上中野,,35.465949301,136.767345975,1525_01,,0,
1525_02,,上中野,,35.4658327109545,136.767316823868,1525_02,,0,
1526_01,,常磐松,,35.464710941,136.768813841,1526_01,,0,
1526_02,,常磐松,,35.464581353,136.768799076,1526_02,,0,
1527_01,,八代公園,,35.4616120964049,136.77305987563,1527_01,,0,
1527_02,,八代公園,,35.461540196,136.773051194,1527_02,,0,
1528_01,,サンマート・長良整形,,35.461550383,136.775158109,1528_01,,0,
1528_02,,サンマート・長良整形,,35.461445956,136.77500795,1528_02,,0,
1529_01,,北部コミセン,,35.460137252,136.774599655,1529_01,,0,
1529_02,,北部コミセン,,35.4605552548398,136.774725260395,1529_02,,0,
1530_01,,岩砂病院・波多野医院,,35.458220539,136.774689159,1530_01,,0,
1530_02,,岩砂病院・波多野医院,,35.458217361,136.774515545,1530_02,,0,
1531_01,,平成調剤薬局前,,35.4568198777087,136.774495663418,1531_01,,0,
1534_01,,わたなべ内科,,35.451428863,136.772696444,1534_01,,0,
1534_02,,わたなべ内科,,35.451544005,136.772866964,1534_02,,0,
1535_01,,竹村歯科医院,,35.451539096,136.770921958,1535_01,,0,
1535_02,,竹村歯科医院,,35.451652944,136.770916818,1535_02,,0,
1536_01,,ごとう整形外科,,35.449444093,136.769676083,1536_01,,0,
1536_02,,ごとう整形外科,,35.4493178432238,136.769507601857,1536_02,,0,
1537_01,,福光公園西,,35.447721299,136.769362775,1537_01,,0,
1537_02,,福光公園西,,35.447743814,136.769186844,1537_02,,0,
1538_01,,長良西小,,35.444778518,136.768766441,1538_01,,0,
1538_02,,長良西小,,35.444769269,136.768615897,1538_02,,0,
1539_00,,長良川国際会議場,,35.441919991,136.768395439,1539_00,,0,
1540_01,,早田東町,,35.436724218,136.759568049,1540_01,,0,
1540_02,,早田東町,,35.436872785,136.759661131,1540_02,,0,
1542_01,,ぎふ清流福祉エリア,,35.440841287,136.755657868,1542_01,,0,
1542_02,,ぎふ清流福祉エリア,,35.440978742,136.755721463,1542_02,,0,
1543_01,,メモリアル西,,35.442622263,136.758255287,1543_01,,0,
1543_02,,メモリアル西,,35.442255015,136.757260094,1543_02,,0,
1544_01,,メモリアル前,,35.443710475,136.764529994,1544_01,,0,
1544_02,,メモリアル前,,35.443820832,136.76470561,1544_02,,0,
1545_01,,北消防署前,,35.445191401,136.761622735,1545_01,,0,
1545_02,,北消防署前,,35.445050063,136.762569988,1545_02,,0,
1546_01,,清洲公民館,,35.4457185877007,136.760319694876,1546_01,,0,
1547_01,,簡易保険前,,35.4463350377018,136.758808592993,1547_01,,0,
1547_02,,簡易保険前,,35.4459467530344,136.760059185326,1547_02,,0,
1548_01,,鷺山白鷺町,,35.446591696,136.756063572,1548_01,,0,
1548_02,,鷺山白鷺町,,35.4467281943516,136.756177018003,1548_02,,0,
1549_01,,鷺山玉川町,,35.4463342176105,136.753983532939,1549_01,,0,
1549_02,,鷺山玉川町,,35.4464550594863,136.75412367836,1549_02,,0,
1550_01,,月見町,,35.4454426871938,136.753712264026,1550_01,,0,
1551_01,,若草町,,35.445376933,136.750759575,1551_01,,0,
1552_01,,千草町,,35.4461920937963,136.749982563174,1552_01,,0,
1553_02,,緑ヶ丘,,35.4464554485715,136.750608940563,1553_02,,0,
1554_01,,マーサ東,,35.4464609112779,136.746703644237,1554_01,,0,
1554_02,,マーサ東,,35.4465767205655,136.746558804951,1554_02,,0,
1555_01,,正木マーサ前,,35.447414706,136.745790819,1555_01,,0,
1601_00,,バロー茜部本郷店,,35.391032121,136.75576019,1601_00,,0,
1602_01,,神明神社（茜部）,,35.390007774,136.756135249,1602_01,,0,
1603_01,,整形外科城南病院前,,35.3877,136.75603,1603_01,,0,
1604_01,,中央卸売市場,,35.385147995,136.75567941,1604_01,,0,
1605_01,,新所3丁目,,35.382125209,136.756740161,1605_01,,0,
1606_01,,茜部小学校前,,35.380796321,136.756624601,1606_01,,0,
1607_01,,茜部公民館前,,35.38003844,136.755358731,1607_01,,0,
1608_01,,イトーパッケージ前,,35.379820246,136.751574068,1608_01,,0,
1609_01,,菱野4丁目,,35.380959266,136.750578083,1609_01,,0,
1610_01,,こいし整形外科・しょうなん調剤薬局,,35.3847585717034,136.747770309448,1610_01,,0,
1611_01,,あかね公園・市営アパート前,,35.3856600569769,136.750504757371,1611_01,,0,
1612_01,,南市民健康センター,,35.386942115,136.750976758,1612_01,,0,
1613_01,,赤十字血液センター西,,35.3903805798847,136.750324794651,1613_01,,0,
1613_02,,赤十字血液センター西,,35.3904351914727,136.750311383606,1613_02,,0,
1614_01,,中島2丁目,,35.39178136,136.748923364,1614_01,,0,
1614_02,,中島2丁目,,35.3917875323424,136.748999891146,1614_02,,0,
1615_01,,中島1丁目,,35.393610693,136.748954551,1615_01,,0,
1615_02,,中島1丁目,,35.3936357673305,136.749030636357,1615_02,,0,
1616_01,,大野2丁目西,,35.3961165664474,136.748887926102,1616_01,,0,
1616_02,,大野2丁目西,,35.3956648013098,136.748951209687,1616_02,,0,
1620_01,,水主町1丁目,,35.39354195,136.756727307,1620_01,,0,
1620_02,,水主町1丁目,,35.393458313,136.756837483,1620_02,,0,
1621_01,,朝霧町,,35.3922931789533,136.763308681547,1621_01,,0,
1621_02,,朝霧町,,35.392259525,136.763082442,1621_02,,0,
1622_01,,城東通り5丁目,,35.39334909,136.764598202,1622_01,,0,
1622_02,,城東通り5丁目,,35.393332191,136.764775188,1622_02,,0,
1623_01,,下川手バス停前,,35.3951537415641,136.764999591756,1623_01,,0,
1623_02,,下川手バス停前,,35.395193706,136.765132976,1623_02,,0,
1624_01,,JA・地域包括厚見,,35.397357987,136.766655224,1624_01,,0,
1624_02,,JA・地域包括厚見,,35.397111759,136.767456558,1624_02,,0,
1625_01,,宮北町,,35.39751745,136.768211085,1625_01,,0,
1625_02,,宮北町,,35.397827667,136.768306327,1625_02,,0,
1626_01,,岡本・中島米穀前,,35.3999505942537,136.768196017676,1626_01,,0,
1626_02,,岡本・中島米穀前,,35.399824869,136.768265127,1626_02,,0,
1627_01,,いながき理容店・松野酒店前,,35.4019713887332,136.768322647863,1627_01,,0,
1627_02,,いながき理容店・松野酒店前,,35.402096923,136.768392338,1627_02,,0,
1628_02,,茶所東,,35.402052591,136.770566009,1628_02,,0,
1629_01,,栢屋商店前,,35.40110193597,136.770655207,1629_01,,0,
1629_02,,栢屋商店前,,35.400704242,136.770555463,1629_02,,0,
1630_01,,厚見公民館前,,35.3978368652809,136.770608930644,1630_01,,0,
1630_02,,厚見公民館前,,35.397875576,136.770540124,1630_02,,0,
1631_01,,厚八グランド北,,35.395978638,136.773169059,1631_01,,0,
1631_02,,厚八グランド北,,35.395910638,136.772674618,1631_02,,0,
1632_01,,野畑南,,35.395827076,136.776227943,1632_01,,0,
1632_02,,野畑南,,35.395900426,136.776276137,1632_02,,0,
1633_01,,野畑北,,35.396991694,136.775698091,1633_01,,0,
1633_02,,野畑北,,35.397012512,136.775752374,1633_02,,0,
1634_01,,厚見中学校前,,35.3984308730695,136.774410022272,1634_01,,0,
1634_02,,厚見中学校前,,35.3983849589573,136.774452937616,1634_02,,0,
1635_01,,えんま堂,,35.39966,136.77702,1635_01,,0,
1635_02,,えんま堂,,35.399561553,136.776640587,1635_02,,0,
1636_01,,領下八幡神社,,35.4004003,136.779512077,1636_01,,0,
1636_02,,領下八幡神社,,35.4004268232223,136.77980789445,1636_02,,0,
1637_01,,細畑・二ツ山,,35.4006809525894,136.781753341873,1637_01,,0,
1637_02,,細畑・二ツ山,,35.40062952,136.782134379,1637_02,,0,
1638_01,,うおいち前,,35.403271197,136.782280153,1638_01,,0,
1638_02,,うおいち前,,35.403405875,136.782226116,1638_02,,0,
1639_01,,林クリニック前,,35.403600985,136.780262827,1639_01,,0,
1639_02,,林クリニック前,,35.403735855,136.780240824,1639_02,,0,
1640_01,,領下郵便局,,35.403998435,136.777741245,1640_01,,0,
1640_02,,領下郵便局,,35.4041150156811,136.777622224658,1640_02,,0,
1641_01,,西領下,,35.40428568,136.775831874,1641_01,,0,
1641_02,,西領下,,35.404436843,136.775719506,1641_02,,0,
1642_01,,小島内科クリニック,,35.404478582,136.772807216,1642_01,,0,
1642_02,,小島内科クリニック,,35.404479575,136.772724748,1642_02,,0,
1643_01,,上川手東,,35.402399408,136.772948453,1643_01,,0,
1643_02,,上川手東,,35.402300161,136.772837299,1643_02,,0,
1644_01,,上川手西,,35.402331794,136.770385089,1644_01,,0,
1645_01,,加納八幡町,,35.402648799,136.767411768,1645_01,,0,
1645_02,,加納八幡町,,35.4027338924564,136.767337872934,1645_02,,0,
1701_00,,岐阜病院前,,35.43260647,136.815783004,1701_00,,0,
1702_01,,平和堂,,35.428161586,136.814770474,1702_01,,0,
1702_02,,平和堂,,35.42808715,136.8146928,1702_02,,0,
1703_00,,ザ・パームガーデン前,,35.428016257,136.812358378,1703_00,,0,
1704_00,,城美台公民館前,,35.4278405850477,136.81142957538,1704_00,,0,
1705_00,,城美台北,,35.42709136,136.810940996,1705_00,,0,
1706_00,,城美台西,,35.427485843,136.808784626,1706_00,,0,
1707_00,,日野南4丁目,,35.430390924,136.808420074,1707_00,,0,
1708_00,,もりおか内科前,,35.430752384,136.804851793,1708_00,,0,
1709_00,,中央公園,,35.430315552,136.802359452,1709_00,,0,
1710_00,,信長苑西,,35.430340557,136.799573521,1710_00,,0,
1711_00,,信長苑東,,35.430900856,136.800311188,1711_00,,0,
1712_00,,西山口,,35.4317266724409,136.802926343634,1712_00,,0,
1713_00,,天満神社西,,35.431995476,136.804269343,1713_00,,0,
1714_00,,日野駐在所前,,35.431805143,136.806030156,1714_00,,0,
1715_00,,誓源寺前,,35.4342474641303,136.804997906665,1715_00,,0,
1716_00,,JA日野支店南,,35.435834257,136.803931523,1716_00,,0,
1717_00,,日野小学校前,,35.4378069844885,136.803737338946,1717_00,,0,
1718_00,,堂後,,35.439578573,136.80548849,1718_00,,0,
1719_00,,日野西3丁目,,35.437575352,136.800776598,1719_00,,0,
1720_00,,日野保育園前,,35.438382004,136.802591427,1720_00,,0,
1721_00,,たかやま接骨院前,,35.436541184,136.80430735,1721_00,,0,
1722_00,,日野古墳前,,35.43515835,136.806056176,1722_00,,0,
1723_00,,安壮接骨院前,,35.432630835,136.809459422,1723_00,,0,
1724_00,,日野東2丁目,,35.432380284,136.81182669,1724_00,,0,
1725_00,,岐阜病院南,,35.432129222,136.814065857,1725_00,,0,
1726_00,,日野恵光前,,35.433542543,136.817824639,1726_00,,0,
1727_00,,第3岐阜老人ホーム前,,35.4333776,136.81920482,1727_00,,0,
1728_00,,成瀬クリニック前,,35.4311022975396,136.817175010931,1728_00,,0,
1801_00,,バロー北一色店,,35.412447941,136.794067103,1801_00,,0,
1802_00,,野一色4丁目,,35.412470911,136.797290213,1802_00,,0,
1805_00,,前一色西,,35.408072175,136.797360842,1805_00,,0,
1806_00,,前一色中,,35.407877479,136.798840606,1806_00,,0,
1807_00,,前一色東,,35.407700927,136.803528685,1807_00,,0,
1808_00,,獅子林前,,35.40774575,136.805015823,1808_00,,0,
1809_00,,岩地1丁目中央,,35.409907725,136.806137862,1809_00,,0,
1810_00,,はしもと内科前,,35.410731548,136.807296587,1810_00,,0,
1811_00,,野一色5丁目東,,35.4123344030533,136.808060420138,1811_00,,0,
1812_00,,マックスバリュ前,,35.41358964,136.809177808,1812_00,,0,
1813_00,,水海道2丁目,,35.413622283,136.812093233,1813_00,,0,
1814_00,,新田公民館前,,35.417181961,136.812651923,1814_00,,0,
1815_00,,中琴塚,,35.419398416,136.812924901,1815_00,,0,
1816_00,,北琴塚,,35.422800557,136.814116314,1816_00,,0,
1819_00,,城美南公園前,,35.4255849436214,136.810894194071,1819_00,,0,
1820_00,,サフィールあまいけ前,,35.4251135334338,136.813530872123,1820_00,,0,
1821_00,,ウエルシア岐阜琴塚店,,35.421277236,136.814257893,1821_00,,0,
1822_00,,西琴塚,,35.419230488,136.811789436,1822_00,,0,
1823_00,,澤田病院前,,35.417895193,136.805420663,1823_00,,0,
1824_00,,中寺町,,35.4180553550043,136.803101874961,1824_00,,0,
1825_00,,山陽町,,35.4189,136.80095,1825_00,,0,
1826_00,,長森本町北,,35.4212858,136.798841225,1826_00,,0,
1827_00,,棚橋内科前,,35.4194626749206,136.797527087261,1827_00,,0,
1828_00,,尾崎花園前,,35.417421586,136.794870337,1828_00,,0,
1829_00,,北一色,,35.41696027,136.792062996,1829_00,,0,
1830_00,,セブンイレブン東,,35.41628124355,136.787279426,1830_00,,0,
1832_00,,高津整形・Ｖドラッグ前,,35.413879907,136.788646159,1832_00,,0,
1833_00,,宝来町,,35.4208914861,136.78425333,1833_00,,0,
1834_00,,月ノ会町,,35.41907244749,136.7841517721,1834_00,,0,
1835_00,,安江内科クリニック前,,35.417143346,136.7840511893,1835_00,,0,
1836_00,,月丘町,,35.41563923936,136.7839868163,1836_00,,0,
1837_00,,競輪場北,,35.41468503524,136.78393245,1837_00,,0,
1902_00,,柿ヶ瀬東,,35.449635974,136.732021874,1902_00,,0,
1903_00,,馬場,,35.44505961,136.72559423,1903_00,,0,
1904_00,,東木田公園,,35.4450729828565,136.722706253009,1904_00,,0,
1905_00,,中木田,,35.443583256,136.718122437,1905_00,,0,
1906_00,,西木田,,35.4435961528554,136.716801193529,1906_00,,0,
1907_00,,西木田公民館前,,35.4433928810655,136.715214147193,1907_00,,0,
1908_00,,尻毛２丁目,,35.441534294,136.716424163,1908_00,,0,
1909_00,,尻毛１丁目,,35.440045052,136.715206222,1909_00,,0,
1910_00,,下尻毛,,35.438810748,136.713545507,1910_00,,0,
1911_00,,川部５丁目,,35.437069143,136.712472339,1911_00,,0,
1912_00,,川部２丁目,,35.437054063,136.709301373,1912_00,,0,
1913_00,,岐阜清流病院,,35.435597274,136.708019851,1913_00,,0,
1914_00,,又丸柳町,,35.4350191635144,136.705214328137,1914_00,,0,
1915_00,,Vドラッグ又丸店,,35.440561153,136.704401766,1915_00,,0,
1916_00,,上尻毛八幡,,35.44198029,136.705342858,1916_00,,0,
1917_00,,いぼ神・八幡神社,,35.441980035,136.70772415,1917_00,,0,
1918_00,,上尻毛・川部６丁目,,35.441988059,136.710662549,1918_00,,0,
1919_00,,上尻毛日吉,,35.444592437,136.709038879,1919_00,,0,
1920_00,,高田遺跡前,,35.444581422,136.706097307,1920_00,,0,
1921_00,,又丸,,35.441937388,136.703352554,1921_00,,0,
1922_00,,西改田先道,,35.4424562589415,136.702135692251,1922_00,,0,
1923_00,,西改田松の木,,35.443866402,136.702101209,1923_00,,0,
1924_00,,西改田村前,,35.445338657,136.701406507,1924_00,,0,
1925_00,,むつみ幼稚園前,,35.446058275,136.699680492,1925_00,,0,
1926_00,,岐阜西改田簡易郵便局前,,35.4491137148628,136.699619616223,1926_00,,0,
1927_00,,グリーン歯科,,35.4522723,136.699450694,1927_00,,0,
1928_00,,小島製作所,,35.456272433,136.699259398,1928_00,,0,
1929_00,,青山会館東,,35.45460576,136.701616349,1929_00,,0,
1930_00,,七郷クリニック前,,35.450559519,136.70204036,1930_00,,0,
1931_00,,オークワ西改田店,,35.4508485944581,136.705346270681,1931_00,,0,
1932_00,,西改田若宮,,35.44746094,136.708153841,1932_00,,0,
1933_00,,西友改田店,,35.449302581,136.709276849,1933_00,,0,
1934_00,,東改田,,35.450469291,136.712017476,1934_00,,0,
1935_00,,多田精機前,,35.451401988,136.714690442,1935_00,,0,
1936_00,,かわごえクリニック西,,35.4508529643846,136.717881625535,1936_00,,0,
1937_00,,柿ヶ瀬西,,35.45001687,136.730130874,1937_00,,0,
2002_01,,藤垣クリニック・トーカイ薬局・ゲンキー,,35.482897921,136.777375073,2002_01,,0,
2002_02,,藤垣クリニック・トーカイ薬局・ゲンキー,,35.483034532,136.777415554,2002_02,,0,
2003_01,,寺内橋西,,35.48298174,136.775412164,2003_01,,0,
2003_02,,寺内橋西,,35.483080603,136.775381169,2003_02,,0,
2004_01,,粟野西５丁目,,35.482349592,136.774143794,2004_01,,0,
2004_02,,粟野西５丁目,,35.482341882,136.774018176,2004_02,,0,
2005_01,,立専寺,,35.480400475,136.774577875,2005_01,,0,
2005_02,,立専寺,,35.480362158,136.774420187,2005_02,,0,
2006_01,,岩野田公園,,35.478319906,136.774909427,2006_01,,0,
2006_02,,岩野田公園,,35.478318306,136.774752732,2006_02,,0,
2007_01,,粟野西１丁目,,35.4777669200782,136.778061559139,2007_01,,0,
2007_02,,粟野西１丁目,,35.47768993,136.77805167,2007_02,,0,
2008_01,,ＪＡ岩野田支店,,35.478672108,136.779760019,2008_01,,0,
2008_02,,ＪＡ岩野田支店,,35.478689194,136.77966867,2008_02,,0,
2009_01,,加藤クリニック・セブンイレブン前,,35.480351769,136.779819546,2009_01,,0,
2009_02,,加藤クリニック・セブンイレブン前,,35.48035169,136.779974599,2009_02,,0,
201_00,,西岐阜駅南口,,35.404337118,136.723644182,201_00,,0,
2010_01,,バロー粟野店南・岩野田児童センター東,,35.482434151,136.779891604,2010_01,,0,
2010_02,,バロー粟野店南・岩野田児童センター東,,35.482432366,136.780051839,2010_02,,0,
2011_01,,粟野西６丁目,,35.485676018,136.771828693,2011_01,,0,
2011_02,,粟野西６丁目,,35.485671636,136.771971633,2011_02,,0,
2012_00,,八幡洞入口,,35.4893208245073,136.769950018176,2012_00,,0,
2013_00,,八幡洞中,,35.491421042494,136.769066566342,2013_00,,0,
2014_00,,八幡洞団地,,35.492608707,136.768886381,2014_00,,0,
2015_01,,済法寺大門,,35.487055232,136.773086853,2015_01,,0,
2015_02,,済法寺大門,,35.487033789,136.772987813,2015_02,,0,
2016_01,,粟野西７丁目,,35.4866201667293,136.775846838906,2016_01,,0,
2016_02,,粟野西７丁目,,35.486565632,136.775835732,2016_02,,0,
2017_00,,粟野台,,35.489713609,136.777381539,2017_00,,0,
2018_01,,黒木橋,,35.486377121,136.778580474,2018_01,,0,
2018_02,,黒木橋,,35.486285682,136.778835156,2018_02,,0,
202_00,,市橋4丁目,,35.4022800822534,136.725313451312,202_00,,0,
2020_01,,粟野東3丁目北,,35.4891882933433,136.782752430305,2020_01,,0,
2020_02,,粟野東3丁目北,,35.489130731,136.782706998,2020_02,,0,
2022_01,,スギ薬局粟野東店,,35.488931883,136.785867309,2022_01,,0,
2022_02,,スギ薬局粟野東店,,35.488935156,136.785758888,2022_02,,0,
2023_01,,粟野東４丁目,,35.4876940805486,136.785436907877,2023_01,,0,
2023_02,,粟野東４丁目,,35.487711736,136.785369862,2023_02,,0,
2024_01,,神明神社,,35.485384925,136.784780869,2024_01,,0,
2024_02,,神明神社,,35.485405134,136.784649813,2024_02,,0,
2025_01,,粟野口,,35.4826231060028,136.783484216446,2025_01,,0,
2025_02,,粟野口,,35.482584699,136.783604173,2025_02,,0,
2027_01,,今井整形外科,,35.4793676904508,136.784483171579,2027_01,,0,
2027_02,,今井整形外科,,35.479272813,136.784557487,2027_02,,0,
2028_01,,城北高校前,,35.4794005565626,136.789409702721,2028_01,,0,
2028_02,,城北高校前,,35.479294914,136.78932693,2028_02,,0,
2029_01,,三田洞自動車学校口,,35.4784121004745,136.792836554593,2029_01,,0,
2029_02,,三田洞自動車学校口,,35.47828668706,136.792840698823,2029_02,,0,
203_00,,県図書館・美術館,,35.4006690254257,136.729552657556,203_00,,0,
203_01,,県図書館・美術館,,35.4006085377069,136.729938225102,203_01,,0,
2030_01,,三田洞団地集会場,,35.477167132,136.79673132,2030_01,,0,
2030_02,,三田洞団地集会場,,35.47714802,136.7967112105,2030_02,,0,
2031_01,,団地７棟南,,35.4767335139628,136.795354360396,2031_01,,0,
2031_02,,団地７棟南,,35.476629563,136.795329452,2031_02,,0,
2032_01,,三田洞東２・３丁目,,35.4758690600086,136.795848467503,2032_01,,0,
2032_02,,三田洞東２・３丁目,,35.4758068078967,136.79559768096,2032_02,,0,
2033_01,,兎ヶ洞東公園,,35.4739864406341,136.796512310085,2033_01,,0,
2033_02,,兎ヶ洞東公園,,35.474031505,136.796576845,2033_02,,0,
2034_01,,三田洞東公民館,,35.475051821,136.794749439,2034_01,,0,
2034_02,,三田洞東公民館,,35.4751102730999,136.794857718727,2034_02,,0,
2035_01,,兎ヶ洞中公園,,35.4763367268154,136.793158369551,2035_01,,0,
2035_02,,兎ヶ洞中公園,,35.4763703099762,136.793206314037,2035_02,,0,
2036_01,,薬師橋,,35.476709405,136.791881472,2036_01,,0,
2036_02,,薬師橋,,35.4767695542496,136.791816566856,2036_02,,0,
2037_01,,城北高校南口,,35.475087625,136.788328848,2037_01,,0,
2037_02,,城北高校南口,,35.4752256907346,136.787743186603,2037_02,,0,
2039_00,,三田洞公民館,,35.474674243,136.784930411,2039_00,,0,
204_00,,ハイツ宇佐,,35.399320777,136.729576225,204_00,,0,
2040_01,,カラオケハッピー・ローソン前,,35.473237037,136.78104244,2040_01,,0,
2040_02,,カラオケハッピー・ローソン前,,35.473296797,136.780906421,2040_02,,0,
2041_01,,霊松院前,,35.46960141,136.779371133,2041_01,,0,
2041_02,,霊松院前,,35.4696302393256,136.779245589692,2041_02,,0,
2042_01,,戸羽川,,35.466990364,136.776531257,2042_01,,0,
2042_02,,戸羽川,,35.467804515,136.777567419,2042_02,,0,
2043_01,,床屋前,,35.4651606,136.775840326,2043_01,,0,
2044_01,,下岩崎,,35.4632561588127,136.775984318146,2044_01,,0,
2044_02,,下岩崎,,35.463226120194,136.775796563515,2044_02,,0,
2047_01,,岩崎戸羽川,,35.4686202158301,136.775930531887,2047_01,,0,
2047_02,,岩崎戸羽川,,35.468530614,136.775942316,2047_02,,0,
2048_01,,岩崎桜本,,35.470935605,136.776193724,2048_01,,0,
2048_02,,岩崎桜本,,35.470938993,136.776349161,2048_02,,0,
2049_02,,岩崎山手,,35.471640403,136.775874966,2049_02,,0,
205_00,,バロー市橋店前,,35.399404893,136.72779032,205_00,,0,
2050_01,,岩崎畑中,,35.4748877928277,136.779014356434,2050_01,,0,
2050_02,,岩崎畑中,,35.4748602159037,136.779002286493,2050_02,,0,
2051_01,,しもて歯科,,35.4747452592073,136.781283356084,2051_01,,0,
2051_02,,しもて歯科,,35.474718375,136.781370454,2051_02,,0,
2052_01,,ほっともっと岐阜岩崎店,,35.475810278,136.781731026,2052_01,,0,
2052_02,,ほっともっと岐阜岩崎店,,35.475948606,136.781948763,2052_02,,0,
2053_01,,三田洞大橋,,35.4789417707913,136.782634332776,2053_01,,0,
206_00,,山内ホスピタル北,,35.399446768,136.724886008,206_00,,0,
207_00,,薮田東1丁目,,35.397687976,136.7230001,207_00,,0,
208_01,,県庁,,35.391992444,136.72197067,208_01,,0,
208_02,,県庁,,35.392345067,136.721601393,208_02,,0,
209_00,,岐阜ハートセンター前,,35.392037192,136.718138219,209_00,,0,
210_00,,県民ふれあい会館前,,35.39104177,136.715224614,210_00,,0,
211_00,,岐阜メイツクリニック北,,35.3907984826953,136.718173931964,211_00,,0,
212_00,,薮田南3丁目,,35.390035305,136.720941837,212_00,,0,
213_00,,須賀2丁目,,35.388096225,136.720899889,213_00,,0,
214_00,,須賀3丁目,,35.3872957573116,136.718795830967,214_00,,0,
215_00,,須賀4丁目,,35.3873291042903,136.716463277641,215_00,,0,
216_00,,須賀4丁目北,,35.38855,136.71441,216_00,,0,
217_00,,下奈良3丁目,,35.38870172458,136.7118688756,217_00,,0,
218_00,,下奈良2丁目,,35.3904373780751,136.711516908282,218_00,,0,
219_00,,福祉・農業会館南,,35.3908675135428,136.713461432268,219_00,,0,
220_00,,ヤマダ電機西,,35.392665312,136.71762426,220_00,,0,
221_00,,薮田公民館南,,35.395800948,136.71743217,221_00,,0,
222_00,,薮田西公民館東,,35.396046957,136.712374441,222_00,,0,
223_00,,薮田県職員アパート東,,35.398682547,136.712415032,223_00,,0,
224_00,,今嶺4丁目,,35.3996312437847,136.712981541726,224_00,,0,
225_00,,はしもと内科,,35.3995290015904,136.716044481083,225_00,,0,
226_00,,今嶺公民館東,,35.3995995115372,136.719298276841,226_00,,0,
227_00,,市橋コミセン前,,35.3995681128136,136.721583532115,227_00,,0,
228_01,,市橋小学校,,35.4024309196496,136.720826834823,228_01,,0,
228_02,,市橋小学校,,35.402496135354,136.720753744627,228_02,,0,
229_01,,市立岐商東,,35.4054898389219,136.720312368124,229_01,,0,
229_02,,市立岐商東,,35.405553236,136.72037199,229_02,,0,
230_00,,西荘4丁目,,35.4067598314015,136.720074992626,230_00,,0,
231_00,,市立岐商前,,35.4057923858099,136.71592589436,231_00,,0,
232_00,,安江病院,,35.409218714,136.71629489,232_00,,0,
233_00,,鏡島弘法,,35.4104298148286,136.721476037633,233_00,,0,
234_00,,精華西,,35.4118271653522,136.726045832698,234_00,,0,
235_01,,森屋,,35.4127321735213,136.729885886194,235_01,,0,
235_02,,森屋,,35.4126015600472,136.729814807656,235_02,,0,
236_00,,市民病院北口,,35.414592605,136.734274916,236_00,,0,
237_00,,スーパー三心前,,35.409796882,136.723215615,237_00,,0,
238_00,,バロー鏡島店前,,35.408645547,136.721410063,238_00,,0,
239_00,,南部西事務所前,,35.40152,136.72739,239_00,,0,
301_00,,マーサ南口,,35.447198584,136.744452923,301_00,,0,
302_00,,シャトレーゼ南,,35.440045689066,136.742621417985,302_00,,0,
303_00,,大福町8丁目,,35.437147117,136.742201563,303_00,,0,
304_00,,日光コミセン,,35.4360770888244,136.745588160353,304_00,,0,
305_00,,近石病院,,35.4353896988862,136.74693954845,305_00,,0,
306_00,,忠節フランテ館,,35.4339774273552,136.74687177031,306_00,,0,
307_00,,おおのレディースクリニック,,35.433378779,136.745487123,307_00,,0,
308_00,,忠節（北）,,35.4332612687828,136.746888863872,308_00,,0,
308_01,,忠節（南）,,35.433391348,136.747363352,308_01,,0,
309_00,,村瀬内科胃腸科クリニック,,35.435538739038,136.750488306759,309_00,,0,
310_00,,早田町4丁目,,35.4365106804632,136.752237887862,310_00,,0,
311_00,,早田西公園,,35.4384884002552,136.754154540633,311_00,,0,
312_00,,早田小学校,,35.4392184120776,136.757205542422,312_00,,0,
313_00,,清流文化プラザ南,,35.4393465216043,136.759236901049,313_00,,0,
314_00,,岐阜メモリアルセンター,,35.4392648463353,136.762254499566,314_00,,0,
315_00,,早田東町2丁目,,35.4380781598971,136.763776231255,315_00,,0,
316_00,,早田東公園,,35.436403137,136.763813958,316_00,,0,
317_00,,操レディスホスピタル,,35.434819601,136.759554287,317_00,,0,
318_00,,津島神社,,35.434616533,136.758758345,318_00,,0,
319_00,,岐阜赤十字病院,,35.4335307814319,136.755767865704,319_00,,0,
320_00,,山吹町2丁目,,35.4324930468278,136.751720374324,320_00,,0,
321_00,,島栄町2丁目,,35.432356107,136.745038799,321_00,,0,
322_00,,しま医院前,,35.430083298,136.741154172,322_00,,0,
323_00,,島新町,,35.428180198,136.738967735,323_00,,0,
324_00,,東島,,35.426506517,136.737100119,324_00,,0,
325_00,,トミダヤ島店,,35.424057086,136.735769827,325_00,,0,
326_00,,菅生,,35.4237591344275,136.73159152201,326_00,,0,
327_00,,あいレディスクリニック,,35.424556364058,136.727546788752,327_00,,0,
328_00,,江口橋,,35.424217782,136.724836803,328_00,,0,
329_00,,西中島,,35.4279097245273,136.725221141634,329_00,,0,
330_00,,西中島新屋敷,,35.4292161895014,136.725374112933,330_00,,0,
331_00,,梅田クリニック,,35.4326365034787,136.726772422559,331_00,,0,
332_00,,島中央公園前,,35.4349072943808,136.728188532289,332_00,,0,
333_00,,萱場西公園,,35.4364800855214,136.729665736221,333_00,,0,
334_00,,萱場公民館,,35.4378410028543,136.731644842915,334_00,,0,
335_00,,中電アパート前,,35.4391501497942,136.734490911199,335_00,,0,
336_00,,十六銀行・コメダ則武店,,35.4402200739643,136.739014238119,336_00,,0,
337_00,,ＪＡぎふ則武支店,,35.4423814161085,136.739505082368,337_00,,0,
338_00,,青木内科眼科,,35.4439683970407,136.739857091936,338_00,,0,
401_00,,岐阜ファミリーパーク,,35.514732003,136.830028192,401_00,,0,
402_01,,西山,,35.510127956,136.830103237,402_01,,0,
402_02,,西山,,35.5098199021785,136.830023183904,402_02,,0,
403_00,,津島神社前,,35.504676951,136.832062319,403_00,,0,
404_01,,里一号公民館前,,35.5039920146418,136.835817501941,404_01,,0,
404_02,,里一号公民館前,,35.5039477983606,136.835765869418,404_02,,0,
405_01,,ぷりんとぴあ前,,35.50103036,136.826037518,405_01,,0,
405_02,,ぷりんとぴあ前,,35.5010663122587,136.825928538312,405_02,,0,
406_00,,北浦,,35.496387984,136.823899054,406_00,,0,
407_00,,太郎丸団地,,35.496581614,136.820901363,407_00,,0,
408_00,,新屋敷,,35.494188683,136.8231104,408_00,,0,
409_01,,コメリ岐阜三輪店前,,35.492541635382,136.824691548617,409_01,,0,
409_02,,コメリ岐阜三輪店前,,35.4924140728768,136.824969351582,409_02,,0,
410_01,,大前医院前,,35.4922073750942,136.826981315003,410_01,,0,
410_02,,大前医院前,,35.492160838,136.826810659,410_02,,0,
411_00,,JAぎふ三輪支店,,35.491745785,136.829136993,411_00,,0,
412_01,,厳美郵便局前,,35.491583334943,136.832733254208,412_01,,0,
412_02,,厳美郵便局前,,35.4913740626373,136.834008360326,412_02,,0,
413_00,,バロー三輪店,,35.491647974,136.836266229,413_00,,0,
414_00,,千疋口,,35.4911606658178,136.838737373515,414_00,,0,
415_00,,森・中屋,,35.4870299617102,136.837872048667,415_00,,0,
416_01,,世保,,35.483546069,136.836142236,416_01,,0,
416_02,,世保,,35.4841356312937,136.836207057736,416_02,,0,
417_01,,溝口上,,35.48122,136.83559,417_01,,0,
417_02,,溝口上,,35.4810781963632,136.835459215363,417_02,,0,
418_00,,溝口,,35.478620112504,136.834940007802,418_00,,0,
419_01,,石田内科前,,35.479515081,136.829096771,419_01,,0,
419_02,,石田内科前,,35.4795970282095,136.829276573559,419_02,,0,
420_00,,北東部コミセン,,35.479258648,136.825830636,420_00,,0,
421_01,,福富口,,35.480692924,136.824356582,421_01,,0,
421_02,,福富口,,35.4805560807843,136.82445539122,421_02,,0,
422_01,,福富,,35.482470042,136.823631728,422_01,,0,
422_02,,福富,,35.482604852,136.823237505,422_02,,0,
423_01,,福富町田,,35.482376336,136.820080356,423_01,,0,
423_02,,福富町田,,35.482472524286,136.819960122428,423_02,,0,
424_00,,福富団地南口,,35.48273637,136.815874613,424_00,,0,
425_00,,聖マリア前,,35.484968838,136.815961124,425_00,,0,
426_00,,福富団地,,35.485012367,136.817824107,426_00,,0,
427_00,,福富団地東,,35.4851385600762,136.820271757234,427_00,,0,
428_00,,福富団地口,,35.485360788,136.823715656,428_00,,0,
429_01,,樫木団地口,,35.489964811,136.824116123,429_01,,0,
429_02,,樫木団地口,,35.490389628,136.824207562,429_02,,0,
430_00,,中島東,,35.491129559,136.821037472,430_00,,0,
431_00,,中島,,35.492207693,136.816154184,431_00,,0,
432_01,,諏訪,,35.493340803,136.815182311,432_01,,0,
432_02,,諏訪,,35.493326844,136.815310666,432_02,,0,
433_00,,不破クリニック前,,35.493040197,136.812933836,433_00,,0,
434_00,,野田口,,35.4918869941331,136.808429446793,434_00,,0,
435_00,,福丸団地,,35.4872005436172,136.808980175061,435_00,,0,
436_00,,福丸南口,,35.4859156198034,136.809736206847,436_00,,0,
437_01,,三田洞郵便局前,,35.477431523,136.793268854,437_01,,0,
437_02,,三田洞郵便局前,,35.4775138371659,136.793347652562,437_02,,0,
438_00,,三田洞神仏温泉,,35.4725787241661,136.787797217616,438_00,,0,
439_01,,弘法前,,35.474897402,136.786589933,439_01,,0,
439_02,,弘法前,,35.4749959161218,136.786734117182,439_02,,0,
440_01,,三田洞,,35.4785246227682,136.78321987558,440_01,,0,
440_02,,三田洞,,35.4782376453689,136.783253556879,440_02,,0,
441_01,,トミダヤ三田洞店,,35.48113291,136.782664709,441_01,,0,
441_02,,トミダヤ三田洞店,,35.481159567,136.782798699,441_02,,0,
442_00,,バロー粟野店,,35.483428461,136.780846201,442_00,,0,
443_01,,粟野東3丁目南,,35.488071348,136.780429871,443_01,,0,
443_02,,粟野東3丁目南,,35.488002814,136.78048029,443_02,,0,
444_00,,増田医院前,,35.488893848,136.784374555,444_00,,0,
445_00,,岐北厚生病院,,35.4924613684588,136.78729198873,445_00,,0,
502_01,,名鉄岐阜駅前,,35.41120525709,136.758810906397,502_01,,0,
502_02,,かわぐちクリニック・まみや薬局前,,35.410510148357,136.76215969026,502_02,,0,
503_01,,松岡整形前,,35.4140224483904,136.762005958229,503_01,,0,
503_02,,松岡整形前,,35.413974133,136.762106372,503_02,,0,
504_01,,山田メディカルクリニック,,35.414847892,136.761308098,504_01,,0,
504_02,,山田メディカルクリニック,,35.4150361822596,136.760782486893,504_02,,0,
505_01,,柳ケ瀬,,35.418419305,136.76003609,505_01,,0,
505_02,,柳ケ瀬,,35.419157308,136.760364497,505_02,,0,
506_01,,後藤家・若宮郵便局,,35.41985,136.76241,506_01,,0,
506_02,,後藤家・若宮郵便局,,35.419663720772,136.762429979002,506_02,,0,
507_01,,橿森神社,,35.418744303,136.763976212,507_01,,0,
507_02,,橿森神社,,35.418015189,136.764175076,507_02,,0,
508_01,,殿町3丁目・金園町4丁目,,35.418007067,136.766586771,508_01,,0,
508_02,,殿町3丁目・金園町4丁目,,35.417018632,136.766627225,508_02,,0,
509_01,,コロムビアファッションカレッジ,,35.415848836,136.767349624,509_01,,0,
509_02,,コロムビアファッションカレッジ,,35.4158470486712,136.767184473574,509_02,,0,
510_01,,鶴田町2丁目,,35.4149318037817,136.768679551679,510_01,,0,
510_02,,鶴田町2丁目,,35.414833674,136.768687647,510_02,,0,
511_01,,東海労金岐阜支店・ワークプラザ岐阜,,35.4149211707243,136.771114557653,511_01,,0,
511_02,,東海労金岐阜支店・ワークプラザ岐阜,,35.414817463,136.770996553,511_02,,0,
512_01,,金生堂前,,35.4148798877346,136.773374412855,512_01,,0,
512_02,,金生堂前,,35.414764032856,136.773379106721,512_02,,0,
513_01,,東栄町2丁目,,35.4147968219894,136.774865289023,513_01,,0,
513_02,,東栄町2丁目,,35.4147118434577,136.774851542701,513_02,,0,
514_01,,岐阜トヨタ前,,35.416814420999,136.776365792225,514_01,,0,
515_01,,庵町,,35.419806899,136.775668831,515_01,,0,
515_02,,庵町,,35.4198150415746,136.775763639407,515_02,,0,
516_01,,岐阜市斎苑前,,35.4214388055791,136.776177667388,516_01,,0,
516_02,,岐阜市斎苑前,,35.421330647,136.776314154,516_02,,0,
517_01,,ナーシングホーム悠ライフ,,35.41939,136.778070969,517_01,,0,
517_02,,ナーシングホーム悠ライフ,,35.41931,136.778,517_02,,0,
518_00,,月丘町3丁目,,35.4158712052152,136.777897591038,518_00,,0,
519_00,,雲井町,,35.4139380155333,136.77659494829,519_00,,0,
520_00,,岐阜曙郵便局,,35.4126404981867,136.776528482246,520_00,,0,
521_01,,マルナカ入舟店,,35.4119840123029,136.776196791776,521_01,,0,
521_02,,マルナカ入舟店,,35.4115244142557,136.77603095909,521_02,,0,
522_01,,石川内科クリニック前,,35.410397993,136.774126775,522_01,,0,
522_02,,石川内科クリニック前,,35.4104697383977,136.774192745049,522_02,,0,
523_01,,ハローワーク前,,35.408829195,136.772800144,523_01,,0,
523_02,,ハローワーク前,,35.409296124,136.772634698,523_02,,0,
524_01,,西友岐阜華陽店,,35.407452531,136.771932963,524_01,,0,
524_02,,西友岐阜華陽店,,35.4075271446869,136.772030885573,524_02,,0,
525_01,,華陽小学校,,35.407477185,136.770680104,525_01,,0,
525_02,,華陽小学校,,35.407638221854,136.769832149147,525_02,,0,
526_01,,よしだファミリークリニック,,35.4086606497781,136.767243817448,526_01,,0,
526_02,,よしだファミリークリニック,,35.4080966318796,136.767839267849,526_02,,0,
527_01,,華陽郵便局前,,35.408990746,136.766798142,527_01,,0,
527_02,,華陽郵便局前,,35.4090557878733,136.766807077698,527_02,,0,
528_01,,コメダコーヒー前,,35.409135387,136.763668709,528_01,,0,
528_02,,コメダコーヒー前,,35.4092312220082,136.763677819855,528_02,,0,
601_00,,バロー芥見店,,35.455874796,136.852011577,601_00,,0,
602_01,,くまだ眼科・テイコク前,,35.455709403,136.854095507,602_01,,0,
602_02,,くまだ眼科・テイコク前,,35.455601163,136.854116494,602_02,,0,
603_01,,安達整形外科,,35.4567589865555,136.855371147394,603_01,,0,
603_02,,安達整形外科,,35.457095277,136.854749502,603_02,,0,
604_00,,セブンイレブン,,35.4567589865555,136.857316607093,604_00,,0,
605_01,,南山2・3丁目,,35.4568176929075,136.85829678057,605_01,,0,
605_02,,南山2・3丁目,,35.4571765457139,136.857966218588,605_02,,0,
606_01,,生協芥見店,,35.4568593128295,136.859817526263,606_01,,0,
606_02,,生協芥見店,,35.456772844,136.86013241,606_02,,0,
607_01,,大洞郵便局南,,35.456822147,136.862948595,607_01,,0,
608_01,,芥見南公民館口,,35.4553793338796,136.863686354188,608_01,,0,
609_01,,緑山1丁目,,35.45524821961,136.865069293744,609_01,,0,
610_01,,緑山2丁目北,,35.454401812,136.866731866,610_01,,0,
611_01,,緑山2丁目,,35.4536542039213,136.867183445512,611_01,,0,
612_01,,緑山東・願成寺口,,35.4537376103771,136.869587528018,612_01,,0,
613_01,,緑山・大洞,,35.4546683422032,136.869012973721,613_01,,0,
614_01,,大洞西,,35.4559590589884,136.868020549537,614_01,,0,
615_01,,桜台・柏台口,,35.457938182,136.867682634,615_01,,0,
615_02,,桜台・柏台口,,35.4583568706708,136.868166375606,615_02,,0,
616_01,,桜台市営住宅,,35.458397778,136.866654024,616_01,,0,
617_01,,大洞保育園,,35.4591553962905,136.865952095196,617_01,,0,
618_01,,桜台東（柏台連絡橋),,35.4597475386558,136.868432467983,618_01,,0,
619_01,,桜台北（桐が丘連絡橋）,,35.4609340992155,136.867085960001,619_01,,0,
620_01,,桜台西北（3丁目）,,35.4614267631544,136.863693722139,620_01,,0,
621_01,,芥見東小学校・東公民館,,35.458775618,136.863827477,621_01,,0,
621_02,,芥見東小学校・東公民館,,35.458756219,136.863675953,621_02,,0,
622_00,,ミニストップ,,35.457083509,136.862393899,622_00,,0,
623_01,,Vドラッグ前,,35.456673353,136.857385497,623_01,,0,
624_01,,おやま皮膚科,,35.456596294,136.855250604,624_01,,0,
625_01,,バロー東,,35.4565549666764,136.85339189017,625_01,,0,
626_00,,ケーヨーデイツー,,35.458391056,136.851527601,626_00,,0,
627_00,,三心・徳兵衛前,,35.4599389898,136.8530723242,627_00,,0,
628_00,,カローラ芥見店,,35.458221975,136.851674017,628_00,,0,
629_00,,みどり病院,,35.4579219825262,136.853426302746,629_00,,0,
630_00,,バロー南,,35.4555866197459,136.853230000438,630_00,,0,
631_00,,芥見診療所,,35.454257324,136.849532421,631_00,,0,
632_00,,東部コミセン,,35.449793419,136.847998004,632_00,,0,
633_00,,東部事務所,,35.4497656570956,136.846536176758,633_00,,0,
634_00,,芥見交番・順明堂歯科,,35.4500194378623,136.845227368175,634_00,,0,
635_00,,森田整形外科,,35.451561914,136.845765314,635_00,,0,
636_00,,岐阜信用金庫前,,35.4542602054567,136.84826963515,636_00,,0,
637_02,,北山東（3丁目）,,35.457647135,136.862779357,637_02,,0,
638_02,,桜台西（2丁目）,,35.460769166769,136.863110966697,638_02,,0,
639_02,,桐が丘市営住宅,,35.4622851759,136.8633418403,639_02,,0,
640_02,,桐が丘北（1丁目）,,35.4631036667383,136.86529564094,640_02,,0,
641_02,,桐が丘東（桜台連絡橋）,,35.4617260411044,136.866929108262,641_02,,0,
642_02,,紅葉が丘西（1丁目）,,35.461372822842,136.868500510832,642_02,,0,
643_02,,紅葉が丘西北（2丁目）,,35.4629237328593,136.869024188349,643_02,,0,
644_02,,紅葉が丘公園,,35.462825125,136.870718489,644_02,,0,
645_02,,紅葉が丘東北（6丁目）,,35.462469096924,136.872398480772,645_02,,0,
646_02,,藍川東中学校,,35.461291017,136.872334401,646_02,,0,
647_02,,大洞岐協苑,,35.46087283144,136.873925341,647_02,,0,
648_02,,柏台東（7丁目）,,35.4596250609322,136.873239242399,648_02,,0,
649_02,,柏台北（6丁目）,,35.460584596,136.871156453,649_02,,0,
650_02,,柏台西（桜台連絡橋）,,35.4594974109188,136.869129123736,650_02,,0,
651_02,,柏台南（2丁目）,,35.458530094425,136.870555462765,651_02,,0,
652_02,,柏台市営住宅,,35.457803103,136.869927754,652_02,,0,
653_02,,大洞接骨院前,,35.4566155985372,136.865239150951,653_02,,0,
654_02,,大洞郵便局東,,35.4571491660229,136.86349091255,654_02,,0,
655_02,,北山公園,,35.458596033,136.857734104,655_02,,0,
656_02,,北山西（1丁目）,,35.4588669884975,136.855088137615,656_02,,0,
701_00,,黒野病院前,,35.470476688,136.712636166,701_00,,0,
702_00,,第一千成団地南,,35.470560399,136.709429238,702_00,,0,
703_00,,スーパー三心東（西郷店）,,35.470578234,136.707620959,703_00,,0,
704_00,,スーパー三心（西郷店）,,35.470563445,136.705208487,704_00,,0,
705_00,,御望西,,35.472651257,136.703022172,705_00,,0,
706_00,,寺内,,35.472645175,136.69803995,706_00,,0,
707_00,,西郷小学校北,,35.472650462,136.695831705,707_00,,0,
708_00,,西郷保育所前,,35.470154684,136.695646595,708_00,,0,
709_00,,第二学ヶ丘,,35.4687741113128,136.694595074845,709_00,,0,
710_00,,阿弥陀寺,,35.464933082,136.695921861,710_00,,0,
711_00,,第一学ヶ丘,,35.464517515,136.698232758,711_00,,0,
712_00,,物部,,35.4650572488778,136.699421117073,712_00,,0,
713_00,,中西郷,,35.4687813332788,136.699455890049,713_00,,0,
714_00,,ほたる橋,,35.4687812424621,136.702659637549,714_00,,0,
715_00,,ファミリーマート中店前,,35.4686845440317,136.704741561107,715_00,,0,
716_00,,寿楽苑前,,35.4681504644969,136.707915430858,716_00,,0,
717_00,,小野北,,35.466517774,136.709510517,717_00,,0,
718_00,,小野,,35.46467284,136.709783295,718_00,,0,
719_00,,正法寺北,,35.4642642646135,136.712429576809,719_00,,0,
720_00,,第三下鵜飼,,35.464235932,136.715365447,720_00,,0,
721_00,,黒野コーポ南,,35.4641502915336,136.716528444645,721_00,,0,
722_00,,黒野小学校南,,35.4634328178379,136.718043371489,722_00,,0,
723_00,,黒野会館前,,35.4617060552296,136.717932699247,723_00,,0,
724_00,,下鵜飼北,,35.4611524529399,136.716631296836,724_00,,0,
725_00,,小野東,,35.460911229,136.714066442,725_00,,0,
726_00,,西部事務所,,35.45890757,136.713984459,726_00,,0,
727_01,,下西郷4丁目,,35.458218346,136.708271342,727_01,,0,
727_02,,下西郷4丁目,,35.4582841904461,136.707934140472,727_02,,0,
728_00,,新堀公民館前,,35.4535859439098,136.705701359285,728_00,,0,
729_00,,下西郷3丁目,,35.4565181756173,136.705715071742,729_00,,0,
730_00,,西町公民館,,35.4589036048679,136.718777668493,730_00,,0,
731_01,,黒野城跡前,,35.458610367,136.721274726,731_01,,0,
731_02,,黒野城跡前,,35.4586891311032,136.721050188196,731_02,,0,
732_01,,平野総合病院,,35.458213144,136.726120133,732_01,,0,
732_02,,平野総合病院,,35.458346873,136.726183523,732_02,,0,
733_00,,みながわクリニック前,,35.4572058490994,136.728790405039,733_00,,0,
734_01,,ドラッグユタカ前,,35.458262868,136.730005809,734_01,,0,
734_02,,ドラッグユタカ前,,35.4583246454624,136.730110891314,734_02,,0,
735_01,,岐大口,,35.457852163,136.732496996,735_01,,0,
735_02,,岐大口,,35.458387582,136.733447209,735_02,,0,
736_00,,カネスエ（岐大前店）,,35.459330529,136.73309478,736_00,,0,
737_00,,岐阜大学,,35.462879009,136.735648927,737_00,,0,
738_00,,岐阜大学病院,,35.467718847,136.732773421,738_00,,0,
739_01,,立山クリニック前,,35.4627470745353,136.730655004329,739_01,,0,
739_02,,立山クリニック前,,35.462636326,136.73059685,739_02,,0,
741_01,,カフェすえひろ・西本整形外科・リハビリクリニック,,35.4668418510572,136.723647044408,741_01,,0,
741_02,,カフェすえひろ・西本整形外科・リハビリクリニック,,35.4668396665281,136.723282263982,741_02,,0,
742_01,,ＪＡ黒野支店前,,35.467277784,136.721556611,742_01,,0,
742_02,,ＪＡ黒野支店前,,35.467272826,136.720848271,742_02,,0,
743_02,,黒野小学校北口,,35.4648904101721,136.719948319916,743_02,,0,
744_02,,黒野こども園西,,35.4672041360245,136.71716190926,744_02,,0,
745_01,,黒野こども園北口,,35.4677743084508,136.718531577616,745_01,,0,
760_01,,今川,,35.465381289,136.72665674,760_01,,0,
760_02,,今川,,35.465249847,136.726577355,760_02,,0,
801_00,,ドルフィンスイミングスクール,,35.453280775,136.831103741,801_00,,0,
802_00,,大蔵台公民館前,,35.454541843,136.827815222,802_00,,0,
803_00,,大蔵台団地西,,35.454854089,136.826885428,803_00,,0,
804_00,,みどりヶ丘表通り,,35.458737927,136.829061189,804_00,,0,
805_00,,県営加野住宅,,35.461995261,136.823765503,805_00,,0,
806_00,,藍川公民館,,35.4629840581271,136.824094267626,806_00,,0,
807_00,,すし石松前,,35.4648211904353,136.824213823737,807_00,,0,
808_00,,藍川北中西（高橋接骨院）,,35.4648503224208,136.822821163453,808_00,,0,
809_00,,加野東,,35.4636384267019,136.822131622789,809_00,,0,
810_00,,松風苑（滝住前）,,35.465162631,136.81883128,810_00,,0,
811_00,,ひかり美容院,,35.467045831,136.818236887,811_00,,0,
812_00,,ミワ美容室,,35.467215205,136.816586159,812_00,,0,
813_00,,加野団地公民館,,35.46761207,136.814503063,813_00,,0,
814_00,,南沢公民館前,,35.469584313,136.816138781,814_00,,0,
815_00,,岩井団地西,,35.4681069676317,136.80998543284,815_00,,0,
816_00,,岩井団地東,,35.4686694490998,136.811859616107,816_00,,0,
817_00,,岩井団地入り口,,35.469881566,136.814271693,817_00,,0,
818_00,,延算寺東院,,35.471318171,136.8145658,818_00,,0,
819_00,,岩井中公民館前,,35.4718067639212,136.819946589415,819_00,,0,
820_00,,シルバータウン岩井前,,35.471558221,136.823424422,820_00,,0,
822_00,,松寿し,,35.475078238,136.824651571,822_00,,0,
823_00,,岩井東公民館,,35.471739265,136.826336186,823_00,,0,
824_00,,石原台団地東,,35.471297859,136.827941517,824_00,,0,
825_00,,石原台団地公園,,35.469826016,136.826933087,825_00,,0,
826_00,,北沖団地・プリント学習社前,,35.4687068155818,136.824722374145,826_00,,0,
827_00,,百楽団地,,35.466939372,136.825811883,827_00,,0,
828_00,,加藤医院,,35.465584397,136.827318159,828_00,,0,
829_00,,石原自動車前,,35.4633994503075,136.829002162698,829_00,,0,
830_01,,JA藍川・竹内病院・ピノキオ薬局前,,35.4610303147234,136.83098771949,830_01,,0,
830_02,,JA藍川・竹内病院・ピノキオ薬局前,,35.460905261,136.83097116,830_02,,0,
831_01,,藍川橋・大野はり灸前,,35.4595000379362,136.833259720563,831_01,,0,
831_02,,藍川橋・大野はり灸前,,35.459752601,136.832646176,831_02,,0,
832_01,,芥見町屋,,35.4590877568294,136.839095396743,832_01,,0,
832_02,,芥見町屋,,35.4589863520276,136.839173851356,832_02,,0,
833_01,,上芥見南町,,35.4586840377348,136.840929509282,833_01,,0,
833_02,,上芥見南町,,35.458631476,136.840738525,833_02,,0,
834_01,,大船2丁目,,35.4586971341725,136.846139168652,834_01,,0,
834_02,,大船2丁目,,35.4586227976367,136.846178637289,834_02,,0,
835_01,,大船東,,35.4586460776846,136.849039057195,835_01,,0,
835_02,,大船東,,35.4586012902642,136.848993459642,835_02,,0,
848_00,,加野郵便局,,35.46032206,136.830584007,848_00,,0,
849_00,,スーパー三心（芥見店）,,35.460536943,136.85357641,849_00,,0,
901_00,,県総合医療センター,,35.410795373,136.798173866,901_00,,0,
902_01,,長森コミュニティセンター,,35.408346503,136.79543001,902_01,,0,
902_02,,長森コミュニティセンター,,35.408145864,136.795317304,902_02,,0,
903_00,,梶川整形外科・歯科,,35.404307444198,136.795778709637,903_00,,0,
904_01,,後藤クリニック,,35.401469349,136.796089075,904_01,,0,
904_02,,後藤クリニック,,35.401459348,136.795943467,904_02,,0,
905_01,,長森駅,,35.401090198,136.802693879,905_01,,0,
905_02,,長森駅,,35.401144812,136.802600384,905_02,,0,
906_01,,JAぎふ南長森支店,,35.398725647,136.802731258,906_01,,0,
906_02,,JAぎふ南長森支店,,35.398728013,136.802630911,906_02,,0,
907_01,,杉江商店,,35.397558436,136.802738925,907_01,,0,
907_02,,杉江商店,,35.39740071,136.802626022,907_02,,0,
908_01,,美濃正,,35.3970628251077,136.805130887303,908_01,,0,
908_02,,美濃正,,35.397000403,136.805150153,908_02,,0,
909_01,,青山眼科前,,35.3971876838486,136.808720502449,909_01,,0,
909_02,,青山眼科前,,35.397133483,136.808641661,909_02,,0,
910_01,,高田橋,,35.3977460947615,136.811445546516,910_01,,0,
910_02,,高田橋,,35.397603649,136.8111498027,910_02,,0,
911_01,,高田東,,35.3974482528177,136.814275267678,911_01,,0,
911_02,,高田東,,35.3973903128705,136.814349028426,911_02,,0,
912_00,,那加日新町,,35.3934124476436,136.819312687991,912_00,,0,
913_00,,イオン各務原店,,35.392688875,136.821484096,913_00,,0,
914_01,,芋島東,,35.393131913,136.812851843,914_01,,0,
914_02,,芋島東,,35.393292217,136.813017147,914_02,,0,
915_01,,芋島4丁目,,35.39272959,136.811063006,915_01,,0,
915_02,,芋島4丁目,,35.3928286971951,136.811081198354,915_02,,0,
916_00,,長森ポンプ場,,35.3908821563841,136.810708308233,916_00,,0,
917_01,,東中島東,,35.389488318,136.809967651,917_01,,0,
917_02,,東中島東,,35.3895451215682,136.80996646759,917_02,,0,
918_01,,岐阜外科,,35.390004619,136.805378194,918_01,,0,
918_02,,岐阜外科,,35.390097249,136.805275849,918_02,,0,
919_01,,東中島西,,35.390204481,136.803640594,919_01,,0,
919_02,,東中島西,,35.3902685052938,136.803654319759,919_02,,0,
920_01,,手力公民館,,35.3913213072561,136.801735869762,920_01,,0,
920_02,,手力公民館,,35.3912863554992,136.801804936644,920_02,,0,
921_01,,長森南交番,,35.394656599,136.80225284,921_01,,0,
921_02,,長森南交番,,35.394659285,136.802366435,921_02,,0,
922_01,,切通6丁目電話ボックス前,,35.396926424,136.800341523,922_01,,0,
922_02,,切通6丁目電話ボックス前,,35.3969805203458,136.800196766853,922_02,,0,
923_01,,岐阜信用金庫切通支店,,35.397266686,136.79867424,923_01,,0,
923_02,,岐阜信用金庫切通支店,,35.3973429194754,136.798695757206,923_02,,0,
924_01,,伊豆神社前,,35.399235913,136.79373983,924_01,,0,
924_02,,伊豆神社前,,35.3991346757763,136.794310766889,924_02,,0,
925_01,,恵比寿神社,,35.399693854,136.790144777,925_01,,0,
925_02,,恵比寿神社,,35.3998534316146,136.789815947413,925_02,,0,
926_01,,細畑中,,35.400389269,136.785681924,926_01,,0,
926_02,,細畑中,,35.4004464760834,136.785744089603,926_02,,0,
927_01,,細畑華南,,35.4028738135498,136.785674877794,927_01,,0,
927_02,,細畑華南,,35.402781176,136.785718121,927_02,,0,
928_01,,細畑3丁目,,35.402731526,136.789544174,928_01,,0,
928_02,,細畑3丁目,,35.4026177,136.789464665,928_02,,0,
